ID,housenumber,street,lon,lat,layer,source
201256,3,שד האוניברסיטה,35.23499233523065,31.79835589451214,street,csv
201257,1,שד האוניברסיטה,35.23465442131842,31.798337938145945,street,csv
201258,621,קציר אהרון,35.236185508468836,31.798166216900146,street,csv
201259,30,הרב יצחק ניסים,35.22093560613235,31.728014564118556,street,csv
201260,13,הממציא,35.22124141428917,31.7269593596539,street,csv
201261,9,שמעון בן חמו,35.223825823341166,31.72351392550828,street,csv
201262,11,רפאל בר לביא,35.224944441276556,31.724415601842885,street,csv